{
  "solved": [
    {
      "id": 8,
      "profile": "car",
      "name": "Емельнов Сергей Николаевич",
      "stops": [
        {
          "name": "1905 года 7",
          "activity": "depot start",
          "point_id": 0,
          "location": {
            "lat": 55.7621,
            "lon": 37.55867
          },
          "time": {
            "arrival": "2020-10-01T09:50:00Z",
            "departure": "2020-10-01T14:28:04Z"
          },
          "capacity_constraints": []
        },
        {
          "name": "г. Москва, пер Тишинский Б., д.1",
          "activity": "delivery",
          "point_id": 127,
          "location": {
            "lat": 55.85539,
            "lon": 37.67952
          },
          "time": {
            "arrival": "2020-10-01T14:57:30Z",
            "departure": "2020-10-01T15:04:30Z"
          },
          "capacity_constraints": [
            1479,
            5850
          ]
        },
        {
          "name": "г. Москва, пер Тишинский Ср., д.24-26",
          "activity": "delivery",
          "point_id": 444,
          "location": {
            "lat": 55.8627,
            "lon": 37.68884
          },
          "time": {
            "arrival": "2020-10-01T15:19:39Z",
            "departure": "2020-10-01T15:26:39Z"
          },
          "capacity_constraints": [
            470,
            713
          ]
        },
        {
          "name": "г. Москва  пер Тишинский М.  д.22",
          "activity": "delivery",
          "point_id": 311,
          "location": {
            "lat": 55.86104,
            "lon": 37.68742
          },
          "time": {
            "arrival": "2020-10-01T15:33:46Z",
            "departure": "2020-10-01T15:40:46Z"
          },
          "capacity_constraints": [
            641,
            1824
          ]
        },
        {
          "name": "1905 года 7",
          "activity": "depot end",
          "point_id": 0,
          "location": {
            "lat": 55.7621,
            "lon": 37.55867
          },
          "time": {
            "arrival": "2020-10-01T16:07:44Z",
            "departure": "2020-10-01T16:07:44Z"
          },
          "capacity_constraints": []
        },
        {
          "name": "Дмитрия Ульянова 5",
          "activity": "depot start",
          "point_id": 3,
          "location": {
            "lat": 55.692475,
            "lon": 37.561509
          },
          "time": {
            "arrival": "2020-10-01T16:27:03Z",
            "departure": "2020-10-01T16:37:03Z"
          },
          "capacity_constraints": []
        },
        {
          "name": "г. Москва  ул Дмитрия Ульянова  д.43",
          "activity": "delivery",
          "point_id": 2148,
          "location": {
            "lat": 55.68142,
            "lon": 37.5917
          },
          "time": {
            "arrival": "2020-10-01T16:46:03Z",
            "departure": "2020-10-01T16:53:03Z"
          },
          "capacity_constraints": [
            378,
            2160
          ]
        },
        {
          "name": "г. Москва, Севастопольский пр-кт, д.24А, подъезд 1, эт.4",
          "activity": "delivery",
          "point_id": 1423,
          "location": {
            "lat": 55.6942,
            "lon": 37.60971
          },
          "time": {
            "arrival": "2020-10-01T17:01:01Z",
            "departure": "2020-10-01T17:08:01Z"
          },
          "capacity_constraints": [
            2269,
            9223
          ]
        },
        {
          "name": "115191, Москва г, Серпуховский Вал ул, дом № 3, корпус 1 литер п",
          "activity": "delivery",
          "point_id": 1777,
          "location": {
            "lat": 55.71108,
            "lon": 37.61803
          },
          "time": {
            "arrival": "2020-10-01T17:16:23Z",
            "departure": "2020-10-01T17:23:23Z"
          },
          "capacity_constraints": [
            336,
            1518
          ]
        },
        {
          "name": "г. Москва  ул Мытная  д.44",
          "activity": "delivery",
          "point_id": 1748,
          "location": {
            "lat": 55.721,
            "lon": 37.616
          },
          "time": {
            "arrival": "2020-10-01T17:31:05Z",
            "departure": "2020-10-01T17:38:05Z"
          },
          "capacity_constraints": [
            336,
            956
          ]
        },
        {
          "name": "г. Москва  ул Шаболовка  д.18",
          "activity": "delivery",
          "point_id": 746,
          "location": {
            "lat": 55.7219,
            "lon": 37.61006
          },
          "time": {
            "arrival": "2020-10-01T17:44:15Z",
            "departure": "2020-10-01T17:51:15Z"
          },
          "capacity_constraints": [
            228,
            1632
          ]
        },
        {
          "name": "г. Москва, ул Донская, д.5, подъезд 1, кв.6, эт.3",
          "activity": "delivery",
          "point_id": 2424,
          "location": {
            "lat": 55.72564,
            "lon": 37.60984
          },
          "time": {
            "arrival": "2020-10-01T17:57:09Z",
            "departure": "2020-10-01T18:04:09Z"
          },
          "capacity_constraints": [
            321,
            799
          ]
        },
        {
          "name": "г. Москва, ул Шаболовка, д.37",
          "activity": "delivery",
          "point_id": 1948,
          "location": {
            "lat": 55.71822,
            "lon": 37.61009
          },
          "time": {
            "arrival": "2020-10-01T18:10:37Z",
            "departure": "2020-10-01T18:17:37Z"
          },
          "capacity_constraints": [
            172,
            1800
          ]
        },
        {
          "name": "г. Москва, Ленинский пр-кт, д.15А, эт.1",
          "activity": "delivery",
          "point_id": 1498,
          "location": {
            "lat": 55.72086,
            "lon": 37.60067
          },
          "time": {
            "arrival": "2020-10-01T18:23:58Z",
            "departure": "2020-10-01T18:30:58Z"
          },
          "capacity_constraints": [
            750,
            2960
          ]
        },
        {
          "name": "г. Москва, Ленинский пр-кт, д.15А",
          "activity": "delivery",
          "point_id": 1850,
          "location": {
            "lat": 55.72086,
            "lon": 37.60067
          },
          "time": {
            "arrival": "2020-10-01T18:30:58Z",
            "departure": "2020-10-01T18:37:58Z"
          },
          "capacity_constraints": [
            3733,
            14690
          ]
        },
        {
          "name": "г. Москва  ул Донская  д.28",
          "activity": "delivery",
          "point_id": 937,
          "location": {
            "lat": 55.71784,
            "lon": 37.60319
          },
          "time": {
            "arrival": "2020-10-01T18:44:14Z",
            "departure": "2020-10-01T18:51:14Z"
          },
          "capacity_constraints": [
            1135,
            5103
          ]
        },
        {
          "name": "г. Москва  ул Серпуховский Вал  д.19",
          "activity": "delivery",
          "point_id": 1733,
          "location": {
            "lat": 55.71143,
            "lon": 37.60702
          },
          "time": {
            "arrival": "2020-10-01T18:57:49Z",
            "departure": "2020-10-01T19:04:49Z"
          },
          "capacity_constraints": [
            356,
            1513
          ]
        },
        {
          "name": "г. Москва  проезд Донской 5-й  д.21",
          "activity": "delivery",
          "point_id": 405,
          "location": {
            "lat": 55.71405,
            "lon": 37.59484
          },
          "time": {
            "arrival": "2020-10-01T19:13:12Z",
            "departure": "2020-10-01T19:20:12Z"
          },
          "capacity_constraints": [
            1653,
            8208
          ]
        },
        {
          "name": "г. Москва  проезд Донской 5-й  д.21",
          "activity": "delivery",
          "point_id": 62,
          "location": {
            "lat": 55.71405,
            "lon": 37.59484
          },
          "time": {
            "arrival": "2020-10-01T19:20:12Z",
            "departure": "2020-10-01T19:27:12Z"
          },
          "capacity_constraints": [
            1744,
            8839
          ]
        },
        {
          "name": "г. Москва  Ленинский пр-кт  д.37",
          "activity": "delivery",
          "point_id": 149,
          "location": {
            "lat": 55.70998,
            "lon": 37.58569
          },
          "time": {
            "arrival": "2020-10-01T19:35:56Z",
            "departure": "2020-10-01T19:42:56Z"
          },
          "capacity_constraints": [
            60,
            320
          ]
        },
        {
          "name": "Дмитрия Ульянова 5",
          "activity": "depot end",
          "point_id": 3,
          "location": {
            "lat": 55.692475,
            "lon": 37.561509
          },
          "time": {
            "arrival": "2020-10-01T19:53:27Z",
            "departure": "2020-10-01T19:53:27Z"
          },
          "capacity_constraints": []
        },
        {
          "name": "Мастеркова 3",
          "activity": "depot start",
          "point_id": 7,
          "location": {
            "lat": 55.708511,
            "lon": 37.658634
          },
          "time": {
            "arrival": "2020-10-01T20:08:54Z",
            "departure": "2020-10-01T20:18:54Z"
          },
          "capacity_constraints": []
        },
        {
          "name": "г. Москва, ул Архитектора Щусева, д.2, корп.3, подъезд 9, код домофона 416, кв.416, эт.11",
          "activity": "delivery",
          "point_id": 817,
          "location": {
            "lat": 55.70056,
            "lon": 37.63367
          },
          "time": {
            "arrival": "2020-10-01T20:28:14Z",
            "departure": "2020-10-01T20:35:14Z"
          },
          "capacity_constraints": [
            2649,
            5003
          ]
        },
        {
          "name": "Мастеркова 3",
          "activity": "depot end",
          "point_id": 7,
          "location": {
            "lat": 55.708511,
            "lon": 37.658634
          },
          "time": {
            "arrival": "2020-10-01T20:44:39Z",
            "departure": "2020-10-01T20:44:39Z"
          },
          "capacity_constraints": []
        }
      ],
      "deliveries": 18,
      "distance": 84545,
      "duration": 21293
    },
    {
      "id": 7,
      "profile": "bicycle",
      "name": "Гилевский Игорь Владимирович",
      "stops": [
        {
          "name": "Бауманская 62-66",
          "activity": "depot start",
          "point_id": 1,
          "location": {
            "lat": 55.766116,
            "lon": 37.678837
          },
          "time": {
            "arrival": "2020-10-01T15:50:00Z",
            "departure": "2020-10-01T16:00:00Z"
          },
          "capacity_constraints": []
        },
        {
          "name": "г. Москва  ул Доброслободская  д.8",
          "activity": "delivery",
          "point_id": 699,
          "location": {
            "lat": 55.76752,
            "lon": 37.67239
          },
          "time": {
            "arrival": "2020-10-01T16:04:54Z",
            "departure": "2020-10-01T16:11:54Z"
          },
          "capacity_constraints": [
            91,
            335
          ]
        },
        {
          "name": "г. Москва  Елизаветинский пер  д.6",
          "activity": "delivery",
          "point_id": 401,
          "location": {
            "lat": 55.76257,
            "lon": 37.67303
          },
          "time": {
            "arrival": "2020-10-01T16:17:25Z",
            "departure": "2020-10-01T16:24:25Z"
          },
          "capacity_constraints": [
            877,
            3892
          ]
        },
        {
          "name": "г. Москва  пер Казенный М.  д.12",
          "activity": "delivery",
          "point_id": 241,
          "location": {
            "lat": 55.76077,
            "lon": 37.65445
          },
          "time": {
            "arrival": "2020-10-01T16:36:32Z",
            "departure": "2020-10-01T16:43:32Z"
          },
          "capacity_constraints": [
            282,
            762
          ]
        },
        {
          "name": "г. Москва  ул Покровка  д.35/17",
          "activity": "delivery",
          "point_id": 887,
          "location": {
            "lat": 55.76138,
            "lon": 37.6506
          },
          "time": {
            "arrival": "2020-10-01T16:49:13Z",
            "departure": "2020-10-01T16:56:13Z"
          },
          "capacity_constraints": [
            2214,
            7266
          ]
        },
        {
          "name": "г. Москва, ул Басманная Нов., д.2, подъезд 4",
          "activity": "delivery",
          "point_id": 269,
          "location": {
            "lat": 55.7689,
            "lon": 37.65181
          },
          "time": {
            "arrival": "2020-10-01T17:04:52Z",
            "departure": "2020-10-01T17:11:52Z"
          },
          "capacity_constraints": [
            1026,
            2828
          ]
        },
        {
          "name": "г. Москва, ул Советской Армии, д.12, корп.2",
          "activity": "delivery",
          "point_id": 343,
          "location": {
            "lat": 55.7891,
            "lon": 37.6178
          },
          "time": {
            "arrival": "2020-10-01T17:32:08Z",
            "departure": "2020-10-01T17:39:08Z"
          },
          "capacity_constraints": [
            3169,
            7086
          ]
        },
        {
          "name": "г. Москва, пер Докучаев, д.2, кв.705, эт.7",
          "activity": "delivery",
          "point_id": 557,
          "location": {
            "lat": 55.77433,
            "lon": 37.64212
          },
          "time": {
            "arrival": "2020-10-01T17:55:24Z",
            "departure": "2020-10-01T18:07:00Z"
          },
          "capacity_constraints": [
            36,
            189
          ]
        },
        {
          "name": "г. Москва  Чистопрудный б-р  д.9",
          "activity": "delivery",
          "point_id": 358,
          "location": {
            "lat": 55.76314,
            "lon": 37.64314
          },
          "time": {
            "arrival": "2020-10-01T18:17:35Z",
            "departure": "2020-10-01T18:24:35Z"
          },
          "capacity_constraints": [
            90,
            374
          ]
        },
        {
          "name": "г. Москва  Плетешковский пер  д.7/9",
          "activity": "delivery",
          "point_id": 34,
          "location": {
            "lat": 55.77085,
            "lon": 37.6766
          },
          "time": {
            "arrival": "2020-10-01T18:39:08Z",
            "departure": "2020-10-01T18:46:08Z"
          },
          "capacity_constraints": [
            1078,
            4501
          ]
        },
        {
          "name": "г. Москва  Рубцовская наб  д.2",
          "activity": "delivery",
          "point_id": 208,
          "location": {
            "lat": 55.77372,
            "lon": 37.69631
          },
          "time": {
            "arrival": "2020-10-01T18:55:35Z",
            "departure": "2020-10-01T19:02:35Z"
          },
          "capacity_constraints": [
            920,
            2531
          ]
        },
        {
          "name": "г. Москва  ул Гольяновская  д.1Б",
          "activity": "delivery",
          "point_id": 102,
          "location": {
            "lat": 55.77718,
            "lon": 37.70692
          },
          "time": {
            "arrival": "2020-10-01T19:10:10Z",
            "departure": "2020-10-01T19:17:10Z"
          },
          "capacity_constraints": [
            269,
            1507
          ]
        },
        {
          "name": "г. Москва  ул Вольная  д.28/4",
          "activity": "delivery",
          "point_id": 29,
          "location": {
            "lat": 55.77682,
            "lon": 37.73409
          },
          "time": {
            "arrival": "2020-10-01T19:30:08Z",
            "departure": "2020-10-01T19:37:08Z"
          },
          "capacity_constraints": [
            100,
            236
          ]
        },
        {
          "name": "г. Москва  Измайловское шоссе  д.6",
          "activity": "delivery",
          "point_id": 215,
          "location": {
            "lat": 55.77909,
            "lon": 37.72168
          },
          "time": {
            "arrival": "2020-10-01T19:44:37Z",
            "departure": "2020-10-01T19:51:37Z"
          },
          "capacity_constraints": [
            412,
            1965
          ]
        },
        {
          "name": "г. Москва  проезд Краснокурсантский 1-й  д.1/5",
          "activity": "delivery",
          "point_id": 843,
          "location": {
            "lat": 55.7572,
            "lon": 37.69122
          },
          "time": {
            "arrival": "2020-10-01T20:11:10Z",
            "departure": "2020-10-01T20:18:10Z"
          },
          "capacity_constraints": [
            1296,
            420
          ]
        },
        {
          "name": "Бауманская 62-66",
          "activity": "depot end",
          "point_id": 1,
          "location": {
            "lat": 55.766116,
            "lon": 37.678837
          },
          "time": {
            "arrival": "2020-10-01T20:28:58Z",
            "departure": "2020-10-01T20:28:58Z"
          },
          "capacity_constraints": []
        }
      ],
      "deliveries": 14,
      "distance": 28603,
      "duration": 16138
    },
    {
      "id": 2,
      "profile": "car",
      "name": "Богомолов Даниил Денисович",
      "stops": [
        {
          "name": "Бауманская 62-66",
          "activity": "depot start",
          "point_id": 1,
          "location": {
            "lat": 55.766116,
            "lon": 37.678837
          },
          "time": {
            "arrival": "2020-10-01T09:50:00Z",
            "departure": "2020-10-01T10:00:00Z"
          },
          "capacity_constraints": []
        },
        {
          "name": "г. Москва, ул Красносельская Верхн., д.1",
          "activity": "delivery",
          "point_id": 795,
          "location": {
            "lat": 55.78712,
            "lon": 37.65466
          },
          "time": {
            "arrival": "2020-10-01T10:11:01Z",
            "departure": "2020-10-01T10:18:01Z"
          },
          "capacity_constraints": [
            1383,
            3110
          ]
        },
        {
          "name": "г. Москва  ул Вольная  д.28/4",
          "activity": "delivery",
          "point_id": 790,
          "location": {
            "lat": 55.77682,
            "lon": 37.73409
          },
          "time": {
            "arrival": "2020-10-01T10:31:49Z",
            "departure": "2020-10-01T10:38:49Z"
          },
          "capacity_constraints": [
            242,
            380
          ]
        },
        {
          "name": "г. Москва, проезд Невельского, д.6, корп.1",
          "activity": "delivery",
          "point_id": 628,
          "location": {
            "lat": 55.75108,
            "lon": 37.70042
          },
          "time": {
            "arrival": "2020-10-01T10:52:49Z",
            "departure": "2020-10-01T10:59:49Z"
          },
          "capacity_constraints": [
            245,
            2084
          ]
        },
        {
          "name": "г. Москва  ул Мастеровая  д.6",
          "activity": "delivery",
          "point_id": 487,
          "location": {
            "lat": 55.74619,
            "lon": 37.75488
          },
          "time": {
            "arrival": "2020-10-01T11:13:50Z",
            "departure": "2020-10-01T11:20:50Z"
          },
          "capacity_constraints": [
            286,
            1002
          ]
        },
        {
          "name": "г. Москва  ул Плеханова  д.35",
          "activity": "delivery",
          "point_id": 527,
          "location": {
            "lat": 55.74039,
            "lon": 37.7703
          },
          "time": {
            "arrival": "2020-10-01T11:28:58Z",
            "departure": "2020-10-01T11:35:58Z"
          },
          "capacity_constraints": [
            940,
            3312
          ]
        },
        {
          "name": "г. Москва, улица Плеханова, д.27, корп.2, подъезд 2, кв.26",
          "activity": "delivery",
          "point_id": 519,
          "location": {
            "lat": 55.74307,
            "lon": 37.76947
          },
          "time": {
            "arrival": "2020-10-01T11:42:39Z",
            "departure": "2020-10-01T11:49:39Z"
          },
          "capacity_constraints": [
            573,
            2617
          ]
        },
        {
          "name": "г. Москва  ул Владимирская 2-я  д.40",
          "activity": "delivery",
          "point_id": 752,
          "location": {
            "lat": 55.74999,
            "lon": 37.78451
          },
          "time": {
            "arrival": "2020-10-01T11:58:14Z",
            "departure": "2020-10-01T12:05:14Z"
          },
          "capacity_constraints": [
            307,
            1630
          ]
        },
        {
          "name": "г. Москва  ул Новогиреевская  д.54",
          "activity": "delivery",
          "point_id": 287,
          "location": {
            "lat": 55.74817,
            "lon": 37.80031
          },
          "time": {
            "arrival": "2020-10-01T12:13:34Z",
            "departure": "2020-10-01T12:20:34Z"
          },
          "capacity_constraints": [
            428,
            1127
          ]
        },
        {
          "name": "г. Москва  ул Полимерная  д.11",
          "activity": "delivery",
          "point_id": 23,
          "location": {
            "lat": 55.74719,
            "lon": 37.80337
          },
          "time": {
            "arrival": "2020-10-01T12:26:18Z",
            "departure": "2020-10-01T12:33:18Z"
          },
          "capacity_constraints": [
            365,
            1279
          ]
        },
        {
          "name": "г. Москва  Свободный пр-кт  д.14",
          "activity": "delivery",
          "point_id": 786,
          "location": {
            "lat": 55.75357,
            "lon": 37.8161
          },
          "time": {
            "arrival": "2020-10-01T12:41:44Z",
            "departure": "2020-10-01T12:48:44Z"
          },
          "capacity_constraints": [
            158,
            1800
          ]
        },
        {
          "name": "г. Москва  ул Челябинская  д.14",
          "activity": "delivery",
          "point_id": 119,
          "location": {
            "lat": 55.77726,
            "lon": 37.8286
          },
          "time": {
            "arrival": "2020-10-01T12:59:25Z",
            "departure": "2020-10-01T13:06:25Z"
          },
          "capacity_constraints": [
            390,
            1608
          ]
        },
        {
          "name": "г. Москва  ул Сталеваров  д.10",
          "activity": "delivery",
          "point_id": 131,
          "location": {
            "lat": 55.76296,
            "lon": 37.8397
          },
          "time": {
            "arrival": "2020-10-01T13:16:46Z",
            "departure": "2020-10-01T13:23:46Z"
          },
          "capacity_constraints": [
            1476,
            12803
          ]
        },
        {
          "name": "г. Москва  ул Кетчерская  д.6",
          "activity": "delivery",
          "point_id": 494,
          "location": {
            "lat": 55.74439,
            "lon": 37.82316
          },
          "time": {
            "arrival": "2020-10-01T13:32:54Z",
            "departure": "2020-10-01T13:39:54Z"
          },
          "capacity_constraints": [
            335,
            1065
          ]
        },
        {
          "name": "г. Москва  ул Суздальская  д.34",
          "activity": "delivery",
          "point_id": 126,
          "location": {
            "lat": 55.74497,
            "lon": 37.86861
          },
          "time": {
            "arrival": "2020-10-01T13:49:31Z",
            "departure": "2020-10-01T13:56:31Z"
          },
          "capacity_constraints": [
            18,
            240
          ]
        },
        {
          "name": "г. Москва  ул Вешняковская  д.39",
          "activity": "delivery",
          "point_id": 825,
          "location": {
            "lat": 55.71778,
            "lon": 37.82575
          },
          "time": {
            "arrival": "2020-10-01T14:09:32Z",
            "departure": "2020-10-01T14:16:32Z"
          },
          "capacity_constraints": [
            152,
            438
          ]
        },
        {
          "name": "г. Москва  ул Косинская  д.28",
          "activity": "delivery",
          "point_id": 49,
          "location": {
            "lat": 55.71466,
            "lon": 37.82786
          },
          "time": {
            "arrival": "2020-10-01T14:25:35Z",
            "departure": "2020-10-01T14:32:35Z"
          },
          "capacity_constraints": [
            10,
            149
          ]
        },
        {
          "name": "г. Москва  ул Снайперская  д.5",
          "activity": "delivery",
          "point_id": 943,
          "location": {
            "lat": 55.72311,
            "lon": 37.81483
          },
          "time": {
            "arrival": "2020-10-01T14:42:24Z",
            "departure": "2020-10-01T14:49:24Z"
          },
          "capacity_constraints": [
            322,
            1804
          ]
        },
        {
          "name": "г. Москва  ул Снайперская  д.12",
          "activity": "delivery",
          "point_id": 255,
          "location": {
            "lat": 55.72098,
            "lon": 37.81103
          },
          "time": {
            "arrival": "2020-10-01T14:56:02Z",
            "departure": "2020-10-01T15:07:00Z"
          },
          "capacity_constraints": [
            71,
            1176
          ]
        },
        {
          "name": "г. Москва  ул Красный Казанец  д.15",
          "activity": "delivery",
          "point_id": 387,
          "location": {
            "lat": 55.71855,
            "lon": 37.8139
          },
          "time": {
            "arrival": "2020-10-01T15:13:12Z",
            "departure": "2020-10-01T15:20:12Z"
          },
          "capacity_constraints": [
            30,
            240
          ]
        },
        {
          "name": "г. Москва  Федеративный пр-кт  д.43",
          "activity": "delivery",
          "point_id": 476,
          "location": {
            "lat": 55.75366,
            "lon": 37.82777
          },
          "time": {
            "arrival": "2020-10-01T15:33:43Z",
            "departure": "2020-10-01T15:40:43Z"
          },
          "capacity_constraints": [
            1977,
            6140
          ]
        },
        {
          "name": "г. Москва  Сапёрный проезд  д.14",
          "activity": "delivery",
          "point_id": 755,
          "location": {
            "lat": 55.75604,
            "lon": 37.82737
          },
          "time": {
            "arrival": "2020-10-01T15:47:17Z",
            "departure": "2020-10-01T15:54:17Z"
          },
          "capacity_constraints": [
            115,
            1346
          ]
        },
        {
          "name": "г. Москва  ул Старый Гай  д.1",
          "activity": "delivery",
          "point_id": 254,
          "location": {
            "lat": 55.74143,
            "lon": 37.83091
          },
          "time": {
            "arrival": "2020-10-01T16:05:23Z",
            "departure": "2020-10-01T16:12:23Z"
          },
          "capacity_constraints": [
            611,
            1730
          ]
        },
        {
          "name": "г. Москва  ул Городецкая  д.13/19",
          "activity": "delivery",
          "point_id": 461,
          "location": {
            "lat": 55.73892,
            "lon": 37.86859
          },
          "time": {
            "arrival": "2020-10-01T16:21:58Z",
            "departure": "2020-10-01T16:28:58Z"
          },
          "capacity_constraints": [
            178,
            2370
          ]
        },
        {
          "name": "г. Москва, ул Салтыковская, д.15, корп.2, подъезд 2, код домофона 91, кв.91, эт.6",
          "activity": "delivery",
          "point_id": 432,
          "location": {
            "lat": 55.737,
            "lon": 37.86635
          },
          "time": {
            "arrival": "2020-10-01T16:35:00Z",
            "departure": "2020-10-01T16:42:00Z"
          },
          "capacity_constraints": [
            50,
            20
          ]
        },
        {
          "name": "г. Москва  ул Косинская  д.24",
          "activity": "delivery",
          "point_id": 877,
          "location": {
            "lat": 55.71725,
            "lon": 37.83106
          },
          "time": {
            "arrival": "2020-10-01T16:52:18Z",
            "departure": "2020-10-01T16:59:18Z"
          },
          "capacity_constraints": [
            188,
            1284
          ]
        },
        {
          "name": "г. Москва  ул Косинская  д.26",
          "activity": "delivery",
          "point_id": 123,
          "location": {
            "lat": 55.71553,
            "lon": 37.82925
          },
          "time": {
            "arrival": "2020-10-01T17:04:36Z",
            "departure": "2020-10-01T18:07:00Z"
          },
          "capacity_constraints": [
            78,
            1215
          ]
        },
        {
          "name": "г. Москва  ул Алексея Дикого  д.16",
          "activity": "delivery",
          "point_id": 298,
          "location": {
            "lat": 55.74769,
            "lon": 37.81001
          },
          "time": {
            "arrival": "2020-10-01T18:20:10Z",
            "departure": "2020-10-01T18:27:10Z"
          },
          "capacity_constraints": [
            455,
            2700
          ]
        },
        {
          "name": "г. Москва  ул Молостовых  д.11",
          "activity": "delivery",
          "point_id": 841,
          "location": {
            "lat": 55.75672,
            "lon": 37.83237
          },
          "time": {
            "arrival": "2020-10-01T18:36:11Z",
            "departure": "2020-10-01T18:43:11Z"
          },
          "capacity_constraints": [
            676,
            1736
          ]
        },
        {
          "name": "г. Москва  шоссе Энтузиастов  д.96",
          "activity": "delivery",
          "point_id": 152,
          "location": {
            "lat": 55.77277,
            "lon": 37.82836
          },
          "time": {
            "arrival": "2020-10-01T18:51:51Z",
            "departure": "2020-10-01T18:58:51Z"
          },
          "capacity_constraints": [
            4690,
            35340
          ]
        },
        {
          "name": "г. Москва  ул Новогиреевская  д.8",
          "activity": "delivery",
          "point_id": 845,
          "location": {
            "lat": 55.7631,
            "lon": 37.79168
          },
          "time": {
            "arrival": "2020-10-01T19:09:54Z",
            "departure": "2020-10-01T19:16:54Z"
          },
          "capacity_constraints": [
            196,
            1466
          ]
        },
        {
          "name": "г. Москва  ул Плющева  д.10",
          "activity": "delivery",
          "point_id": 633,
          "location": {
            "lat": 55.74411,
            "lon": 37.76102
          },
          "time": {
            "arrival": "2020-10-01T19:27:08Z",
            "departure": "2020-10-01T19:34:08Z"
          },
          "capacity_constraints": [
            236,
            434
          ]
        },
        {
          "name": "г. Москва  пр-кт Будённого  д.51",
          "activity": "delivery",
          "point_id": 180,
          "location": {
            "lat": 55.76033,
            "lon": 37.73751
          },
          "time": {
            "arrival": "2020-10-01T19:43:06Z",
            "departure": "2020-10-01T19:50:06Z"
          },
          "capacity_constraints": [
            204,
            412
          ]
        },
        {
          "name": "г. Москва  ул Соколиной Горы 8-я  д.20",
          "activity": "delivery",
          "point_id": 929,
          "location": {
            "lat": 55.76522,
            "lon": 37.74303
          },
          "time": {
            "arrival": "2020-10-01T19:57:21Z",
            "departure": "2020-10-01T20:04:21Z"
          },
          "capacity_constraints": [
            72,
            640
          ]
        },
        {
          "name": "г. Москва  шоссе Энтузиастов  д.26",
          "activity": "delivery",
          "point_id": 248,
          "location": {
            "lat": 55.75072,
            "lon": 37.71953
          },
          "time": {
            "arrival": "2020-10-01T20:15:08Z",
            "departure": "2020-10-01T20:22:08Z"
          },
          "capacity_constraints": [
            640,
            6600
          ]
        },
        {
          "name": "г. Москва  ул Кабельная 2-я  д.15",
          "activity": "delivery",
          "point_id": 490,
          "location": {
            "lat": 55.74918,
            "lon": 37.71535
          },
          "time": {
            "arrival": "2020-10-01T20:28:17Z",
            "departure": "2020-10-01T20:35:17Z"
          },
          "capacity_constraints": [
            6800,
            25000
          ]
        },
        {
          "name": "г. Москва  ул Лефортовский Вал  д.11",
          "activity": "delivery",
          "point_id": 247,
          "location": {
            "lat": 55.75788,
            "lon": 37.70015
          },
          "time": {
            "arrival": "2020-10-01T20:42:41Z",
            "departure": "2020-10-01T20:49:41Z"
          },
          "capacity_constraints": [
            40,
            220
          ]
        },
        {
          "name": "Бауманская 62-66",
          "activity": "depot end",
          "point_id": 1,
          "location": {
            "lat": 55.766116,
            "lon": 37.678837
          },
          "time": {
            "arrival": "2020-10-01T20:57:28Z",
            "departure": "2020-10-01T20:57:28Z"
          },
          "capacity_constraints": []
        }
      ],
      "deliveries": 36,
      "distance": 104462,
      "duration": 39448
    },
    {
      "id": 6,
      "profile": "bicycle",
      "name": "Васильев Алексей Александрович",
      "stops": [
        {
          "name": "Волжский б-р  44",
          "activity": "depot start",
          "point_id": 2,
          "location": {
            "lat": 55.699081,
            "lon": 37.750604
          },
          "time": {
            "arrival": "2020-10-01T08:50:00Z",
            "departure": "2020-10-01T09:00:00Z"
          },
          "capacity_constraints": []
        },
        {
          "name": "г. Москва  ул Юных Ленинцев  д.20/2",
          "activity": "delivery",
          "point_id": 381,
          "location": {
            "lat": 55.69961,
            "lon": 37.74665
          },
          "time": {
            "arrival": "2020-10-01T09:04:32Z",
            "departure": "2020-10-01T09:11:32Z"
          },
          "capacity_constraints": [
            226,
            982
          ]
        },
        {
          "name": "г. Москва  ул Текстильщиков 11-я  д.11",
          "activity": "delivery",
          "point_id": 1171,
          "location": {
            "lat": 55.70283,
            "lon": 37.73987
          },
          "time": {
            "arrival": "2020-10-01T09:18:10Z",
            "departure": "2020-10-01T09:25:10Z"
          },
          "capacity_constraints": [
            28,
            100
          ]
        },
        {
          "name": "г. Москва  ул Текстильщиков 7-я  д.3А",
          "activity": "delivery",
          "point_id": 434,
          "location": {
            "lat": 55.70228,
            "lon": 37.73508
          },
          "time": {
            "arrival": "2020-10-01T09:31:52Z",
            "departure": "2020-10-01T09:38:52Z"
          },
          "capacity_constraints": [
            575,
            1720
          ]
        },
        {
          "name": "Неопределенный адрес",
          "activity": "delivery",
          "point_id": 1267,
          "location": {
            "lat": 55.755814,
            "lon": 37.617635
          },
          "time": {
            "arrival": "2020-10-01T10:32:39Z",
            "departure": "2020-10-01T10:39:39Z"
          },
          "capacity_constraints": [
            130,
            499
          ]
        },
        {
          "name": "г. Москва  ул Саратовская  д.31",
          "activity": "delivery",
          "point_id": 1004,
          "location": {
            "lat": 55.71857,
            "lon": 37.7466
          },
          "time": {
            "arrival": "2020-10-01T11:33:03Z",
            "departure": "2020-10-01T11:40:03Z"
          },
          "capacity_constraints": [
            10,
            73
          ]
        },
        {
          "name": "г. Москва  ул Окская  д.24",
          "activity": "delivery",
          "point_id": 862,
          "location": {
            "lat": 55.71354,
            "lon": 37.7623
          },
          "time": {
            "arrival": "2020-10-01T11:47:31Z",
            "departure": "2020-10-01T11:54:31Z"
          },
          "capacity_constraints": [
            195,
            758
          ]
        },
        {
          "name": "г. Москва  ул Жигулёвская  д.6",
          "activity": "delivery",
          "point_id": 314,
          "location": {
            "lat": 55.7116,
            "lon": 37.76167
          },
          "time": {
            "arrival": "2020-10-01T11:58:24Z",
            "departure": "2020-10-01T12:05:24Z"
          },
          "capacity_constraints": [
            1647,
            11350
          ]
        },
        {
          "name": "г. Москва  Волгоградский пр-кт  д.105",
          "activity": "delivery",
          "point_id": 1398,
          "location": {
            "lat": 55.70719,
            "lon": 37.7561
          },
          "time": {
            "arrival": "2020-10-01T12:13:19Z",
            "departure": "2020-10-01T12:20:19Z"
          },
          "capacity_constraints": [
            18,
            1650
          ]
        },
        {
          "name": "г. Москва  ул Юных Ленинцев  д.50/18",
          "activity": "delivery",
          "point_id": 1377,
          "location": {
            "lat": 55.69982,
            "lon": 37.76536
          },
          "time": {
            "arrival": "2020-10-01T12:32:15Z",
            "departure": "2020-10-01T12:39:15Z"
          },
          "capacity_constraints": [
            237,
            1370
          ]
        },
        {
          "name": "г. Москва  ул Зеленодольская  д.36",
          "activity": "delivery",
          "point_id": 681,
          "location": {
            "lat": 55.70859,
            "lon": 37.76809
          },
          "time": {
            "arrival": "2020-10-01T12:46:22Z",
            "departure": "2020-10-01T12:53:22Z"
          },
          "capacity_constraints": [
            234,
            588
          ]
        },
        {
          "name": "г. Москва  ул Зеленодольская  д.36",
          "activity": "delivery",
          "point_id": 1314,
          "location": {
            "lat": 55.70859,
            "lon": 37.76809
          },
          "time": {
            "arrival": "2020-10-01T12:53:22Z",
            "departure": "2020-10-01T13:00:22Z"
          },
          "capacity_constraints": [
            11,
            70
          ]
        },
        {
          "name": "г. Москва  ул Шумилова  д.2",
          "activity": "delivery",
          "point_id": 1388,
          "location": {
            "lat": 55.70959,
            "lon": 37.77031
          },
          "time": {
            "arrival": "2020-10-01T13:03:56Z",
            "departure": "2020-10-01T13:10:56Z"
          },
          "capacity_constraints": [
            1080,
            1750
          ]
        },
        {
          "name": "г. Москва, ул Зеленодольская, д.19, корп.1, подъезд 1, код домофона 29, эт.4",
          "activity": "delivery",
          "point_id": 124,
          "location": {
            "lat": 55.71048,
            "lon": 37.7727
          },
          "time": {
            "arrival": "2020-10-01T13:15:22Z",
            "departure": "2020-10-01T13:22:22Z"
          },
          "capacity_constraints": [
            26,
            252
          ]
        },
        {
          "name": "г. Москва  ул Фёдора Полетаева  д.32",
          "activity": "delivery",
          "point_id": 374,
          "location": {
            "lat": 55.70831,
            "lon": 37.7865
          },
          "time": {
            "arrival": "2020-10-01T13:29:39Z",
            "departure": "2020-10-01T13:36:39Z"
          },
          "capacity_constraints": [
            1695,
            3787
          ]
        },
        {
          "name": "г. Москва  ул Шумилова  д.13",
          "activity": "delivery",
          "point_id": 35,
          "location": {
            "lat": 55.70732,
            "lon": 37.77829
          },
          "time": {
            "arrival": "2020-10-01T13:42:04Z",
            "departure": "2020-10-01T15:07:00Z"
          },
          "capacity_constraints": [
            2779,
            11611
          ]
        },
        {
          "name": "г. Москва  Есенинский б-р  д.9",
          "activity": "delivery",
          "point_id": 436,
          "location": {
            "lat": 55.70109,
            "lon": 37.7789
          },
          "time": {
            "arrival": "2020-10-01T15:16:53Z",
            "departure": "2020-10-01T15:23:53Z"
          },
          "capacity_constraints": [
            244,
            809
          ]
        },
        {
          "name": "Волжский б-р  44",
          "activity": "reload",
          "point_id": 2,
          "location": {
            "lat": 55.699081,
            "lon": 37.750604
          },
          "time": {
            "arrival": "2020-10-01T15:36:39Z",
            "departure": "2020-10-01T15:46:39Z"
          },
          "capacity_constraints": []
        },
        {
          "name": "г. Москва, ул Васильцовский Стан, д.5, корп.2, подъезд 4, код домофона 200, кв.200, эт.3",
          "activity": "delivery",
          "point_id": 1078,
          "location": {
            "lat": 55.71414,
            "lon": 37.74909
          },
          "time": {
            "arrival": "2020-10-01T15:58:33Z",
            "departure": "2020-10-01T16:05:33Z"
          },
          "capacity_constraints": [
            775,
            3399
          ]
        },
        {
          "name": "г. Москва, проезд Грайвороновский 2-й, д.42, корп.2, подъезд 3, код домофона 223, кв.223, эт.11",
          "activity": "delivery",
          "point_id": 1321,
          "location": {
            "lat": 55.72554,
            "lon": 37.74341
          },
          "time": {
            "arrival": "2020-10-01T16:17:11Z",
            "departure": "2020-10-01T16:24:11Z"
          },
          "capacity_constraints": [
            1200,
            26000
          ]
        },
        {
          "name": "г. Москва, ул Грайвороновская, д.14, корп.2, подъезд 4, код домофона 142, кв.142, эт.9",
          "activity": "delivery",
          "point_id": 197,
          "location": {
            "lat": 55.71833,
            "lon": 37.73305
          },
          "time": {
            "arrival": "2020-10-01T16:32:51Z",
            "departure": "2020-10-01T18:07:00Z"
          },
          "capacity_constraints": [
            600,
            1800
          ]
        },
        {
          "name": "г. Москва  ул Чистова  д.16",
          "activity": "delivery",
          "point_id": 16,
          "location": {
            "lat": 55.69696,
            "lon": 37.74525
          },
          "time": {
            "arrival": "2020-10-01T18:24:15Z",
            "departure": "2020-10-01T18:31:15Z"
          },
          "capacity_constraints": [
            532,
            2641
          ]
        },
        {
          "name": "Волжский б-р  44",
          "activity": "depot end",
          "point_id": 2,
          "location": {
            "lat": 55.699081,
            "lon": 37.750604
          },
          "time": {
            "arrival": "2020-10-01T18:37:47Z",
            "departure": "2020-10-01T18:37:47Z"
          },
          "capacity_constraints": []
        },
        {
          "name": "Мастеркова 3",
          "activity": "depot start",
          "point_id": 7,
          "location": {
            "lat": 55.708511,
            "lon": 37.658634
          },
          "time": {
            "arrival": "2020-10-01T19:15:53Z",
            "departure": "2020-10-01T19:25:53Z"
          },
          "capacity_constraints": []
        },
        {
          "name": "г. Москва  ул Трофимова  д.2/1",
          "activity": "delivery",
          "point_id": 174,
          "location": {
            "lat": 55.70274,
            "lon": 37.66034
          },
          "time": {
            "arrival": "2020-10-01T19:35:59Z",
            "departure": "2020-10-01T19:42:59Z"
          },
          "capacity_constraints": [
            153,
            414
          ]
        },
        {
          "name": "г. Москва  пр-кт Андропова  д.38",
          "activity": "delivery",
          "point_id": 725,
          "location": {
            "lat": 55.67414,
            "lon": 37.66163
          },
          "time": {
            "arrival": "2020-10-01T20:00:41Z",
            "departure": "2020-10-01T20:07:41Z"
          },
          "capacity_constraints": [
            723,
            1630
          ]
        },
        {
          "name": "г. Москва, пр-кт Андропова, д.39, корп.56",
          "activity": "delivery",
          "point_id": 408,
          "location": {
            "lat": 55.67212,
            "lon": 37.6652
          },
          "time": {
            "arrival": "2020-10-01T20:15:02Z",
            "departure": "2020-10-01T20:22:02Z"
          },
          "capacity_constraints": [
            758,
            3059
          ]
        },
        {
          "name": "г. Москва  пр-кт Андропова  д.33",
          "activity": "delivery",
          "point_id": 2045,
          "location": {
            "lat": 55.67431,
            "lon": 37.66515
          },
          "time": {
            "arrival": "2020-10-01T20:28:20Z",
            "departure": "2020-10-01T20:35:20Z"
          },
          "capacity_constraints": [
            40,
            240
          ]
        },
        {
          "name": "Мастеркова 3",
          "activity": "depot end",
          "point_id": 7,
          "location": {
            "lat": 55.708511,
            "lon": 37.658634
          },
          "time": {
            "arrival": "2020-10-01T20:59:15Z",
            "departure": "2020-10-01T20:59:15Z"
          },
          "capacity_constraints": []
        }
      ],
      "deliveries": 24,
      "distance": 64459,
      "duration": 42304
    },
    {
      "id": 5,
      "profile": "car",
      "name": "Броновицкий Глеб Сергеевич",
      "stops": [
        {
          "name": "Волжский б-р  44",
          "activity": "depot start",
          "point_id": 2,
          "location": {
            "lat": 55.699081,
            "lon": 37.750604
          },
          "time": {
            "arrival": "2020-10-01T08:50:00Z",
            "departure": "2020-10-01T09:49:00Z"
          },
          "capacity_constraints": []
        },
        {
          "name": "г. Москва, ул Краснодонская, д.1, корп.1 стр 2, подъезд 1, код домофона 2, кв.2, эт.2",
          "activity": "delivery",
          "point_id": 1093,
          "location": {
            "lat": 55.68642,
            "lon": 37.75423
          },
          "time": {
            "arrival": "2020-10-01T09:56:50Z",
            "departure": "2020-10-01T10:03:50Z"
          },
          "capacity_constraints": [
            410,
            1287
          ]
        },
        {
          "name": "г. Москва  ул Ставропольская  д.17А",
          "activity": "delivery",
          "point_id": 945,
          "location": {
            "lat": 55.68229,
            "lon": 37.75179
          },
          "time": {
            "arrival": "2020-10-01T10:10:51Z",
            "departure": "2020-10-01T10:17:51Z"
          },
          "capacity_constraints": [
            474,
            927
          ]
        },
        {
          "name": "г. Москва  ул Мариупольская  д.2/123",
          "activity": "delivery",
          "point_id": 1017,
          "location": {
            "lat": 55.67437,
            "lon": 37.74002
          },
          "time": {
            "arrival": "2020-10-01T10:27:10Z",
            "departure": "2020-10-01T10:34:10Z"
          },
          "capacity_constraints": [
            714,
            1972
          ]
        },
        {
          "name": "г. Москва  ул Совхозная  д.27",
          "activity": "delivery",
          "point_id": 1449,
          "location": {
            "lat": 55.67191,
            "lon": 37.75473
          },
          "time": {
            "arrival": "2020-10-01T10:42:00Z",
            "departure": "2020-10-01T10:49:00Z"
          },
          "capacity_constraints": [
            850,
            2853
          ]
        },
        {
          "name": "г. Москва  ул Верхние Поля  д.36",
          "activity": "delivery",
          "point_id": 552,
          "location": {
            "lat": 55.66858,
            "lon": 37.76359
          },
          "time": {
            "arrival": "2020-10-01T10:55:34Z",
            "departure": "2020-10-01T11:02:34Z"
          },
          "capacity_constraints": [
            412,
            976
          ]
        },
        {
          "name": "г. Москва  ул Верхние Поля  д.36",
          "activity": "delivery",
          "point_id": 1245,
          "location": {
            "lat": 55.66858,
            "lon": 37.76359
          },
          "time": {
            "arrival": "2020-10-01T11:02:34Z",
            "departure": "2020-10-01T11:09:34Z"
          },
          "capacity_constraints": [
            29,
            170
          ]
        },
        {
          "name": "г. Москва  ул Перерва  д.58",
          "activity": "delivery",
          "point_id": 1206,
          "location": {
            "lat": 55.66282,
            "lon": 37.76057
          },
          "time": {
            "arrival": "2020-10-01T11:16:39Z",
            "departure": "2020-10-01T11:23:39Z"
          },
          "capacity_constraints": [
            2834,
            4585
          ]
        },
        {
          "name": "г. Москва, ул Перерва, д.62, корп.2, подъезд 3, кв.182, эт.15",
          "activity": "delivery",
          "point_id": 416,
          "location": {
            "lat": 55.66479,
            "lon": 37.76613
          },
          "time": {
            "arrival": "2020-10-01T11:30:25Z",
            "departure": "2020-10-01T11:37:25Z"
          },
          "capacity_constraints": [
            232,
            737
          ]
        },
        {
          "name": "г. Москва  ул Марьинский Парк  д.23",
          "activity": "delivery",
          "point_id": 534,
          "location": {
            "lat": 55.66384,
            "lon": 37.78249
          },
          "time": {
            "arrival": "2020-10-01T11:45:12Z",
            "departure": "2020-10-01T11:52:12Z"
          },
          "capacity_constraints": [
            136,
            906
          ]
        },
        {
          "name": "г. Москва  ул Головачёва  д.25",
          "activity": "delivery",
          "point_id": 312,
          "location": {
            "lat": 55.67306,
            "lon": 37.81892
          },
          "time": {
            "arrival": "2020-10-01T12:01:21Z",
            "departure": "2020-10-01T12:08:21Z"
          },
          "capacity_constraints": [
            333,
            930
          ]
        },
        {
          "name": "г. кв-л 3-й Капотня  д.18",
          "activity": "delivery",
          "point_id": 1465,
          "location": {
            "lat": 55.6342,
            "lon": 37.79937
          },
          "time": {
            "arrival": "2020-10-01T12:23:14Z",
            "departure": "2020-10-01T12:30:14Z"
          },
          "capacity_constraints": [
            843,
            1090
          ]
        },
        {
          "name": "г. Москва, ул Братиславская, д.30, подъезд 3, кв.150, эт.7",
          "activity": "delivery",
          "point_id": 514,
          "location": {
            "lat": 55.65207,
            "lon": 37.76629
          },
          "time": {
            "arrival": "2020-10-01T12:43:44Z",
            "departure": "2020-10-01T12:50:44Z"
          },
          "capacity_constraints": [
            1010,
            2771
          ]
        },
        {
          "name": "г. Москва  ул Донецкая  д.23",
          "activity": "delivery",
          "point_id": 779,
          "location": {
            "lat": 55.64774,
            "lon": 37.71524
          },
          "time": {
            "arrival": "2020-10-01T13:02:11Z",
            "departure": "2020-10-01T13:09:11Z"
          },
          "capacity_constraints": [
            394,
            1225
          ]
        },
        {
          "name": "г. Москва  ул Донецкая  д.23",
          "activity": "delivery",
          "point_id": 1237,
          "location": {
            "lat": 55.64774,
            "lon": 37.71524
          },
          "time": {
            "arrival": "2020-10-01T13:09:11Z",
            "departure": "2020-10-01T13:16:11Z"
          },
          "capacity_constraints": [
            61,
            380
          ]
        },
        {
          "name": "г. Москва  ул Подольская  д.1",
          "activity": "delivery",
          "point_id": 787,
          "location": {
            "lat": 55.65457,
            "lon": 37.71252
          },
          "time": {
            "arrival": "2020-10-01T13:24:13Z",
            "departure": "2020-10-01T13:31:13Z"
          },
          "capacity_constraints": [
            808,
            2154
          ]
        },
        {
          "name": "г. Москва  Новочеркасский б-р  д.27",
          "activity": "delivery",
          "point_id": 585,
          "location": {
            "lat": 55.64778,
            "lon": 37.73302
          },
          "time": {
            "arrival": "2020-10-01T13:41:13Z",
            "departure": "2020-10-01T15:07:00Z"
          },
          "capacity_constraints": [
            565,
            1477
          ]
        },
        {
          "name": "г. Москва  Батайский проезд  д.41",
          "activity": "delivery",
          "point_id": 799,
          "location": {
            "lat": 55.64366,
            "lon": 37.73416
          },
          "time": {
            "arrival": "2020-10-01T15:14:35Z",
            "departure": "2020-10-01T15:21:35Z"
          },
          "capacity_constraints": [
            777,
            3858
          ]
        },
        {
          "name": "г. Москва  ул Люблинская  д.175",
          "activity": "delivery",
          "point_id": 1319,
          "location": {
            "lat": 55.64595,
            "lon": 37.74721
          },
          "time": {
            "arrival": "2020-10-01T15:28:39Z",
            "departure": "2020-10-01T15:35:39Z"
          },
          "capacity_constraints": [
            592,
            3456
          ]
        },
        {
          "name": "г. Москва  Марьинский б-р  д.4",
          "activity": "delivery",
          "point_id": 537,
          "location": {
            "lat": 55.64756,
            "lon": 37.74969
          },
          "time": {
            "arrival": "2020-10-01T15:41:43Z",
            "departure": "2020-10-01T15:48:43Z"
          },
          "capacity_constraints": [
            1030,
            3033
          ]
        },
        {
          "name": "г. Москва, Мячковский б-р, д.18, корп.1, подъезд 3, кв.136, эт.11",
          "activity": "delivery",
          "point_id": 627,
          "location": {
            "lat": 55.64975,
            "lon": 37.75955
          },
          "time": {
            "arrival": "2020-10-01T15:56:04Z",
            "departure": "2020-10-01T16:03:04Z"
          },
          "capacity_constraints": [
            2941,
            4432
          ]
        },
        {
          "name": "г. Москва, ул Братиславская, д.10, подъезд Салон Версаль",
          "activity": "delivery",
          "point_id": 772,
          "location": {
            "lat": 55.66142,
            "lon": 37.7515
          },
          "time": {
            "arrival": "2020-10-01T16:12:59Z",
            "departure": "2020-10-01T16:19:59Z"
          },
          "capacity_constraints": [
            1568,
            3638
          ]
        },
        {
          "name": "г. Москва, ул Братиславская, д.21, корп.2, подъезд 1, код домофона 5В, кв.5, эт.2",
          "activity": "delivery",
          "point_id": 37,
          "location": {
            "lat": 55.65773,
            "lon": 37.76313
          },
          "time": {
            "arrival": "2020-10-01T16:27:57Z",
            "departure": "2020-10-01T16:34:57Z"
          },
          "capacity_constraints": [
            698,
            2170
          ]
        },
        {
          "name": "г. Москва  ул Братиславская  д.27",
          "activity": "delivery",
          "point_id": 1051,
          "location": {
            "lat": 55.6545,
            "lon": 37.76528
          },
          "time": {
            "arrival": "2020-10-01T16:41:49Z",
            "departure": "2020-10-01T16:48:49Z"
          },
          "capacity_constraints": [
            209,
            1490
          ]
        },
        {
          "name": "г. Москва  Мячковский б-р  д.9",
          "activity": "delivery",
          "point_id": 193,
          "location": {
            "lat": 55.65581,
            "lon": 37.75651
          },
          "time": {
            "arrival": "2020-10-01T16:56:12Z",
            "departure": "2020-10-01T18:07:00Z"
          },
          "capacity_constraints": [
            4447,
            12820
          ]
        },
        {
          "name": "г. Москва  ул Донецкая  д.13",
          "activity": "delivery",
          "point_id": 1089,
          "location": {
            "lat": 55.64974,
            "lon": 37.72191
          },
          "time": {
            "arrival": "2020-10-01T18:17:50Z",
            "departure": "2020-10-01T18:24:50Z"
          },
          "capacity_constraints": [
            1616,
            3402
          ]
        },
        {
          "name": "г. Москва  ул Донецкая  д.30",
          "activity": "delivery",
          "point_id": 1175,
          "location": {
            "lat": 55.64542,
            "lon": 37.70972
          },
          "time": {
            "arrival": "2020-10-01T18:32:40Z",
            "departure": "2020-10-01T18:39:40Z"
          },
          "capacity_constraints": [
            586,
            1483
          ]
        },
        {
          "name": "г. Москва  ул Таганрогская  д.27",
          "activity": "delivery",
          "point_id": 11,
          "location": {
            "lat": 55.67621,
            "lon": 37.75708
          },
          "time": {
            "arrival": "2020-10-01T18:52:12Z",
            "departure": "2020-10-01T18:59:12Z"
          },
          "capacity_constraints": [
            3014,
            6290
          ]
        },
        {
          "name": "г. Москва, ул Ставропольская, д.50/22, подъезд 2, код домофона 98, эт.10",
          "activity": "delivery",
          "point_id": 1255,
          "location": {
            "lat": 55.68148,
            "lon": 37.76493
          },
          "time": {
            "arrival": "2020-10-01T19:06:34Z",
            "departure": "2020-10-01T19:13:34Z"
          },
          "capacity_constraints": [
            11020,
            49005
          ]
        },
        {
          "name": "г. Москва  ул Юных Ленинцев  д.91",
          "activity": "delivery",
          "point_id": 1455,
          "location": {
            "lat": 55.69906,
            "lon": 37.77496
          },
          "time": {
            "arrival": "2020-10-01T19:24:52Z",
            "departure": "2020-10-01T19:31:52Z"
          },
          "capacity_constraints": [
            900,
            7882
          ]
        },
        {
          "name": "г. Москва  ул Юных Ленинцев  д.47",
          "activity": "delivery",
          "point_id": 246,
          "location": {
            "lat": 55.7012,
            "lon": 37.75617
          },
          "time": {
            "arrival": "2020-10-01T19:38:13Z",
            "departure": "2020-10-01T19:45:13Z"
          },
          "capacity_constraints": [
            264,
            1096
          ]
        },
        {
          "name": "Волжский б-р  44",
          "activity": "depot end",
          "point_id": 2,
          "location": {
            "lat": 55.699081,
            "lon": 37.750604
          },
          "time": {
            "arrival": "2020-10-01T19:51:29Z",
            "departure": "2020-10-01T19:51:29Z"
          },
          "capacity_constraints": []
        }
      ],
      "deliveries": 30,
      "distance": 59117,
      "duration": 36149
    },
    {
      "id": 4,
      "profile": "bicycle",
      "name": "Бортников Сергей Сергеевич",
      "stops": [
        {
          "name": "Дмитрия Ульянова 5",
          "activity": "depot start",
          "point_id": 3,
          "location": {
            "lat": 55.692475,
            "lon": 37.561509
          },
          "time": {
            "arrival": "2020-10-01T17:50:00Z",
            "departure": "2020-10-01T18:00:00Z"
          },
          "capacity_constraints": []
        },
        {
          "name": "г. Москва  ул Кедрова  д.21",
          "activity": "delivery",
          "point_id": 2394,
          "location": {
            "lat": 55.68221,
            "lon": 37.57714
          },
          "time": {
            "arrival": "2020-10-01T18:10:58Z",
            "departure": "2020-10-01T18:17:58Z"
          },
          "capacity_constraints": [
            242,
            844
          ]
        },
        {
          "name": "117218, Москва г, Черёмушкинская Б. ул, дом № 30, корпус 1, квартира 39",
          "activity": "delivery",
          "point_id": 1785,
          "location": {
            "lat": 55.68,
            "lon": 37.58389
          },
          "time": {
            "arrival": "2020-10-01T18:25:12Z",
            "departure": "2020-10-01T18:32:12Z"
          },
          "capacity_constraints": [
            194,
            1392
          ]
        },
        {
          "name": "117447  Москва г  Дмитрия Ульянова ул  дом № 43  корпус 3  подьезд 1",
          "activity": "delivery",
          "point_id": 1774,
          "location": {
            "lat": 55.68295,
            "lon": 37.58855
          },
          "time": {
            "arrival": "2020-10-01T18:39:15Z",
            "departure": "2020-10-01T18:46:15Z"
          },
          "capacity_constraints": [
            46,
            343
          ]
        },
        {
          "name": "г. Москва, ул Дмитрия Ульянова, д.31, код домофона 32, кв.32, эт.7",
          "activity": "delivery",
          "point_id": 905,
          "location": {
            "lat": 55.68478,
            "lon": 37.58542
          },
          "time": {
            "arrival": "2020-10-01T18:50:21Z",
            "departure": "2020-10-01T18:57:21Z"
          },
          "capacity_constraints": [
            287,
            480
          ]
        },
        {
          "name": "г. Москва  ул Дмитрия Ульянова  д.23",
          "activity": "delivery",
          "point_id": 1048,
          "location": {
            "lat": 55.68665,
            "lon": 37.57794
          },
          "time": {
            "arrival": "2020-10-01T19:02:47Z",
            "departure": "2020-10-01T19:09:47Z"
          },
          "capacity_constraints": [
            152,
            816
          ]
        },
        {
          "name": "г. Москва, ул Дмитрия Ульянова, д.23, корп.1, подъезд 5, код домофона 265, кв.265, эт.5",
          "activity": "delivery",
          "point_id": 2279,
          "location": {
            "lat": 55.68698,
            "lon": 37.57779
          },
          "time": {
            "arrival": "2020-10-01T19:13:32Z",
            "departure": "2020-10-01T19:20:32Z"
          },
          "capacity_constraints": [
            635,
            3249
          ]
        },
        {
          "name": "г. Москва  ул Шверника  д.5",
          "activity": "delivery",
          "point_id": 1725,
          "location": {
            "lat": 55.69418,
            "lon": 37.5836
          },
          "time": {
            "arrival": "2020-10-01T19:27:02Z",
            "departure": "2020-10-01T19:34:02Z"
          },
          "capacity_constraints": [
            991,
            3365
          ]
        },
        {
          "name": "г. Москва  ул Шверника  д.3",
          "activity": "delivery",
          "point_id": 1384,
          "location": {
            "lat": 55.69411,
            "lon": 37.58198
          },
          "time": {
            "arrival": "2020-10-01T19:36:37Z",
            "departure": "2020-10-01T19:43:37Z"
          },
          "capacity_constraints": [
            560,
            2040
          ]
        },
        {
          "name": "г. Москва, Ленинский пр-кт, д.41/2, подъезд 13",
          "activity": "delivery",
          "point_id": 601,
          "location": {
            "lat": 55.70559,
            "lon": 37.57792
          },
          "time": {
            "arrival": "2020-10-01T19:54:06Z",
            "departure": "2020-10-01T20:01:06Z"
          },
          "capacity_constraints": [
            95,
            271
          ]
        },
        {
          "name": "г. Москва  Ленинский пр-кт  д.43",
          "activity": "delivery",
          "point_id": 724,
          "location": {
            "lat": 55.70445,
            "lon": 37.57554
          },
          "time": {
            "arrival": "2020-10-01T20:05:28Z",
            "departure": "2020-10-01T20:12:28Z"
          },
          "capacity_constraints": [
            529,
            1301
          ]
        },
        {
          "name": "г. Москва  Ленинский пр-кт  д.45",
          "activity": "delivery",
          "point_id": 1585,
          "location": {
            "lat": 55.70334,
            "lon": 37.57378
          },
          "time": {
            "arrival": "2020-10-01T20:16:08Z",
            "departure": "2020-10-01T20:23:08Z"
          },
          "capacity_constraints": [
            626,
            3748
          ]
        },
        {
          "name": "г. Москва  Ленинский пр-кт  д.45",
          "activity": "delivery",
          "point_id": 184,
          "location": {
            "lat": 55.70334,
            "lon": 37.57378
          },
          "time": {
            "arrival": "2020-10-01T20:23:08Z",
            "departure": "2020-10-01T20:30:08Z"
          },
          "capacity_constraints": [
            1095,
            4497
          ]
        },
        {
          "name": "г. Москва  Ленинский пр-кт  д.36",
          "activity": "delivery",
          "point_id": 1936,
          "location": {
            "lat": 55.7054,
            "lon": 37.57467
          },
          "time": {
            "arrival": "2020-10-01T20:35:06Z",
            "departure": "2020-10-01T20:42:06Z"
          },
          "capacity_constraints": [
            161,
            2356
          ]
        },
        {
          "name": "Дмитрия Ульянова 5",
          "activity": "depot end",
          "point_id": 3,
          "location": {
            "lat": 55.692475,
            "lon": 37.561509
          },
          "time": {
            "arrival": "2020-10-01T20:55:13Z",
            "departure": "2020-10-01T20:55:13Z"
          },
          "capacity_constraints": []
        }
      ],
      "deliveries": 13,
      "distance": 10173,
      "duration": 10513
    },
    {
      "id": 9,
      "profile": "bicycle",
      "name": "Жилкина Оксана Григорьевна",
      "stops": [
        {
          "name": "Дмитрия Ульянова 5",
          "activity": "depot start",
          "point_id": 3,
          "location": {
            "lat": 55.692475,
            "lon": 37.561509
          },
          "time": {
            "arrival": "2020-10-01T09:50:00Z",
            "departure": "2020-10-01T10:00:00Z"
          },
          "capacity_constraints": []
        },
        {
          "name": "г. Москва  Ленинский пр-кт  д.45",
          "activity": "delivery",
          "point_id": 620,
          "location": {
            "lat": 55.70334,
            "lon": 37.57378
          },
          "time": {
            "arrival": "2020-10-01T10:11:07Z",
            "departure": "2020-10-01T10:18:07Z"
          },
          "capacity_constraints": [
            540,
            1706
          ]
        },
        {
          "name": "г. Москва  Ленинский пр-кт  д.22",
          "activity": "delivery",
          "point_id": 2190,
          "location": {
            "lat": 55.71577,
            "lon": 37.59164
          },
          "time": {
            "arrival": "2020-10-01T10:31:59Z",
            "departure": "2020-10-01T10:38:59Z"
          },
          "capacity_constraints": [
            716,
            1024
          ]
        },
        {
          "name": "г. Москва  Ленинский пр-кт  д.12",
          "activity": "delivery",
          "point_id": 315,
          "location": {
            "lat": 55.71966,
            "lon": 37.59718
          },
          "time": {
            "arrival": "2020-10-01T10:47:45Z",
            "departure": "2020-10-01T10:54:45Z"
          },
          "capacity_constraints": [
            562,
            1495
          ]
        },
        {
          "name": "г. Москва  ул Донская  д.33",
          "activity": "delivery",
          "point_id": 1327,
          "location": {
            "lat": 55.71948,
            "lon": 37.60529
          },
          "time": {
            "arrival": "2020-10-01T11:04:09Z",
            "departure": "2020-10-01T11:11:09Z"
          },
          "capacity_constraints": [
            176,
            1599
          ]
        },
        {
          "name": "г. Москва  Ленинский пр-кт  д.3",
          "activity": "delivery",
          "point_id": 442,
          "location": {
            "lat": 55.72615,
            "lon": 37.60819
          },
          "time": {
            "arrival": "2020-10-01T11:17:49Z",
            "departure": "2020-10-01T11:24:49Z"
          },
          "capacity_constraints": [
            865,
            5076
          ]
        },
        {
          "name": "г. Москва  ул Городская  д.2",
          "activity": "delivery",
          "point_id": 2221,
          "location": {
            "lat": 55.71632,
            "lon": 37.61737
          },
          "time": {
            "arrival": "2020-10-01T11:37:21Z",
            "departure": "2020-10-01T11:44:21Z"
          },
          "capacity_constraints": [
            1441,
            3884
          ]
        },
        {
          "name": "115419, Москва г, Серпуховский Вал ул, дом № 22, корпус 1, квартира 10, этаж 2",
          "activity": "delivery",
          "point_id": 1763,
          "location": {
            "lat": 55.71213,
            "lon": 37.61135
          },
          "time": {
            "arrival": "2020-10-01T11:51:31Z",
            "departure": "2020-10-01T11:58:31Z"
          },
          "capacity_constraints": [
            1473,
            6221
          ]
        },
        {
          "name": "г. Москва  ул Рощинская 3-я  д.5",
          "activity": "delivery",
          "point_id": 920,
          "location": {
            "lat": 55.70776,
            "lon": 37.61294
          },
          "time": {
            "arrival": "2020-10-01T12:05:26Z",
            "departure": "2020-10-01T12:12:26Z"
          },
          "capacity_constraints": [
            680,
            2810
          ]
        },
        {
          "name": "г. Москва, ул Вавилова, д.61, корп.7",
          "activity": "delivery",
          "point_id": 1750,
          "location": {
            "lat": 55.70881,
            "lon": 37.58791
          },
          "time": {
            "arrival": "2020-10-01T12:26:00Z",
            "departure": "2020-10-01T12:33:00Z"
          },
          "capacity_constraints": [
            2178,
            5250
          ]
        },
        {
          "name": "г. Москва, ул Вавилова, д.61, корп.7",
          "activity": "delivery",
          "point_id": 996,
          "location": {
            "lat": 55.70881,
            "lon": 37.58791
          },
          "time": {
            "arrival": "2020-10-01T12:33:00Z",
            "departure": "2020-10-01T12:40:00Z"
          },
          "capacity_constraints": [
            1719,
            2793
          ]
        },
        {
          "name": "г. Москва, ул Вавилова, д.62/2, подъезд 11",
          "activity": "delivery",
          "point_id": 1959,
          "location": {
            "lat": 55.70402,
            "lon": 37.58422
          },
          "time": {
            "arrival": "2020-10-01T12:47:31Z",
            "departure": "2020-10-01T12:54:31Z"
          },
          "capacity_constraints": [
            1034,
            2806
          ]
        },
        {
          "name": "г. Москва  ул Вавилова  д.17",
          "activity": "delivery",
          "point_id": 1000,
          "location": {
            "lat": 55.70182,
            "lon": 37.58069
          },
          "time": {
            "arrival": "2020-10-01T12:58:49Z",
            "departure": "2020-10-01T13:05:49Z"
          },
          "capacity_constraints": [
            523,
            3060
          ]
        },
        {
          "name": "Дмитрия Ульянова 5",
          "activity": "reload",
          "point_id": 3,
          "location": {
            "lat": 55.692475,
            "lon": 37.561509
          },
          "time": {
            "arrival": "2020-10-01T13:16:31Z",
            "departure": "2020-10-01T13:26:31Z"
          },
          "capacity_constraints": []
        },
        {
          "name": "г. Москва, ул Профсоюзная, д.86, корп.6, подъезд 1, эт.1",
          "activity": "delivery",
          "point_id": 1755,
          "location": {
            "lat": 55.68678,
            "lon": 37.57493
          },
          "time": {
            "arrival": "2020-10-01T13:35:00Z",
            "departure": "2020-10-01T13:42:00Z"
          },
          "capacity_constraints": [
            423,
            1845
          ]
        },
        {
          "name": "г. Москва, ул Новочерёмушкинская, д.23, корп.4, подъезд 1, код домофона 43, кв.43, эт.12",
          "activity": "delivery",
          "point_id": 73,
          "location": {
            "lat": 55.6805,
            "lon": 37.58079
          },
          "time": {
            "arrival": "2020-10-01T13:50:51Z",
            "departure": "2020-10-01T13:57:51Z"
          },
          "capacity_constraints": [
            2563,
            9855
          ]
        },
        {
          "name": "г. Москва, Нахимовский пр-кт, д.26, корп.1",
          "activity": "delivery",
          "point_id": 1722,
          "location": {
            "lat": 55.67204,
            "lon": 37.58379
          },
          "time": {
            "arrival": "2020-10-01T14:08:35Z",
            "departure": "2020-10-01T14:15:35Z"
          },
          "capacity_constraints": [
            155,
            796
          ]
        },
        {
          "name": "г. Москва  Севастопольский пр-кт  д.14",
          "activity": "delivery",
          "point_id": 146,
          "location": {
            "lat": 55.68518,
            "lon": 37.60064
          },
          "time": {
            "arrival": "2020-10-01T14:29:54Z",
            "departure": "2020-10-01T14:36:54Z"
          },
          "capacity_constraints": [
            498,
            1760
          ]
        },
        {
          "name": "117447  Москва г  Винокурова ул  дом № 11  корпус 3",
          "activity": "delivery",
          "point_id": 1762,
          "location": {
            "lat": 55.68747,
            "lon": 37.58968
          },
          "time": {
            "arrival": "2020-10-01T14:43:50Z",
            "departure": "2020-10-01T14:50:50Z"
          },
          "capacity_constraints": [
            213,
            950
          ]
        },
        {
          "name": "г. Москва  ул Шверника  д.5",
          "activity": "delivery",
          "point_id": 1225,
          "location": {
            "lat": 55.69418,
            "lon": 37.5836
          },
          "time": {
            "arrival": "2020-10-01T14:57:52Z",
            "departure": "2020-10-01T15:04:52Z"
          },
          "capacity_constraints": [
            10552,
            19924
          ]
        },
        {
          "name": "г. Москва  пр-кт 60-летия Октября  д.19",
          "activity": "delivery",
          "point_id": 1136,
          "location": {
            "lat": 55.69369,
            "lon": 37.57774
          },
          "time": {
            "arrival": "2020-10-01T15:09:03Z",
            "departure": "2020-10-01T15:16:03Z"
          },
          "capacity_constraints": [
            460,
            2036
          ]
        },
        {
          "name": "Дмитрия Ульянова 5",
          "activity": "depot end",
          "point_id": 3,
          "location": {
            "lat": 55.692475,
            "lon": 37.561509
          },
          "time": {
            "arrival": "2020-10-01T15:26:50Z",
            "departure": "2020-10-01T15:26:50Z"
          },
          "capacity_constraints": []
        },
        {
          "name": "Марьина роща склад",
          "activity": "depot start",
          "point_id": 6,
          "location": {
            "lat": 55.807506,
            "lon": 37.605337
          },
          "time": {
            "arrival": "2020-10-01T16:37:22Z",
            "departure": "2020-10-01T16:47:22Z"
          },
          "capacity_constraints": []
        },
        {
          "name": "Москва, Летчика Бабушкина улица, 11/2, 1",
          "activity": "delivery",
          "point_id": 45,
          "location": {
            "lat": 55.85168,
            "lon": 37.67118
          },
          "time": {
            "arrival": "2020-10-01T17:23:44Z",
            "departure": "2020-10-01T17:30:44Z"
          },
          "capacity_constraints": [
            41,
            198
          ]
        },
        {
          "name": "Москва, Летчика Бабушкина улица, 11/2, 1",
          "activity": "delivery",
          "point_id": 21,
          "location": {
            "lat": 55.85168,
            "lon": 37.67118
          },
          "time": {
            "arrival": "2020-10-01T17:30:44Z",
            "departure": "2020-10-01T17:37:44Z"
          },
          "capacity_constraints": [
            728,
            1676
          ]
        },
        {
          "name": "Марьина роща склад",
          "activity": "depot end",
          "point_id": 6,
          "location": {
            "lat": 55.807506,
            "lon": 37.605337
          },
          "time": {
            "arrival": "2020-10-01T18:13:53Z",
            "departure": "2020-10-01T18:13:53Z"
          },
          "capacity_constraints": []
        }
      ],
      "deliveries": 21,
      "distance": 57633,
      "duration": 29212
    },
    {
      "id": 1,
      "profile": "car",
      "name": "Бердников Евгений Леонидович",
      "stops": [
        {
          "name": "Дмитровское шоссе 87",
          "activity": "depot start",
          "point_id": 4,
          "location": {
            "lat": 55.863015,
            "lon": 37.545761
          },
          "time": {
            "arrival": "2020-10-01T08:50:00Z",
            "departure": "2020-10-01T09:00:00Z"
          },
          "capacity_constraints": []
        },
        {
          "name": "г. Москва  ул Дубнинская  д.45",
          "activity": "delivery",
          "point_id": 1550,
          "location": {
            "lat": 55.72364,
            "lon": 37.63692
          },
          "time": {
            "arrival": "2020-10-01T09:30:14Z",
            "departure": "2020-10-01T09:37:14Z"
          },
          "capacity_constraints": [
            8533,
            54920
          ]
        },
        {
          "name": "г. Москва  ул Дубнинская  д.20",
          "activity": "delivery",
          "point_id": 583,
          "location": {
            "lat": 55.72622,
            "lon": 37.63654
          },
          "time": {
            "arrival": "2020-10-01T09:43:04Z",
            "departure": "2020-10-01T09:50:04Z"
          },
          "capacity_constraints": [
            127,
            1150
          ]
        },
        {
          "name": "г. Москва  ул Дубнинская  д.2",
          "activity": "delivery",
          "point_id": 198,
          "location": {
            "lat": 55.72778,
            "lon": 37.63637
          },
          "time": {
            "arrival": "2020-10-01T09:56:59Z",
            "departure": "2020-10-01T15:07:00Z"
          },
          "capacity_constraints": [
            1548,
            5563
          ]
        },
        {
          "name": "Неопределенный адрес",
          "activity": "delivery",
          "point_id": 289,
          "location": {
            "lat": 55.755814,
            "lon": 37.617635
          },
          "time": {
            "arrival": "2020-10-01T15:22:29Z",
            "departure": "2020-10-01T15:29:29Z"
          },
          "capacity_constraints": [
            711,
            3380
          ]
        },
        {
          "name": "Неопределенный адрес",
          "activity": "delivery",
          "point_id": 1946,
          "location": {
            "lat": 55.755814,
            "lon": 37.617635
          },
          "time": {
            "arrival": "2020-10-01T15:29:29Z",
            "departure": "2020-10-01T15:36:29Z"
          },
          "capacity_constraints": [
            1836,
            12388
          ]
        },
        {
          "name": "Дмитровское шоссе 87",
          "activity": "depot end",
          "point_id": 4,
          "location": {
            "lat": 55.863015,
            "lon": 37.545761
          },
          "time": {
            "arrival": "2020-10-01T16:01:19Z",
            "departure": "2020-10-01T16:01:19Z"
          },
          "capacity_constraints": []
        },
        {
          "name": "Маломосковская 22/1",
          "activity": "depot start",
          "point_id": 5,
          "location": {
            "lat": 55.81174,
            "lon": 37.652616
          },
          "time": {
            "arrival": "2020-10-01T16:22:11Z",
            "departure": "2020-10-01T17:54:15Z"
          },
          "capacity_constraints": []
        },
        {
          "name": "г. Москва  ул Кибальчича  д.12",
          "activity": "delivery",
          "point_id": 533,
          "location": {
            "lat": 55.81573,
            "lon": 37.65231
          },
          "time": {
            "arrival": "2020-10-01T18:00:41Z",
            "departure": "2020-10-01T18:07:41Z"
          },
          "capacity_constraints": [
            1167,
            9300
          ]
        },
        {
          "name": "г. Москва  ул Цандера  д.4",
          "activity": "delivery",
          "point_id": 259,
          "location": {
            "lat": 55.817,
            "lon": 37.63079
          },
          "time": {
            "arrival": "2020-10-01T18:15:35Z",
            "departure": "2020-10-01T18:22:35Z"
          },
          "capacity_constraints": [
            360,
            995
          ]
        },
        {
          "name": "г. Москва  Ярославское шоссе  д.8",
          "activity": "delivery",
          "point_id": 1627,
          "location": {
            "lat": 55.85338,
            "lon": 37.68121
          },
          "time": {
            "arrival": "2020-10-01T18:34:52Z",
            "departure": "2020-10-01T18:41:52Z"
          },
          "capacity_constraints": [
            489,
            1922
          ]
        },
        {
          "name": "г. Москва, Ярославское шоссе, д.54",
          "activity": "delivery",
          "point_id": 348,
          "location": {
            "lat": 55.8655,
            "lon": 37.70488
          },
          "time": {
            "arrival": "2020-10-01T18:50:05Z",
            "departure": "2020-10-01T18:57:05Z"
          },
          "capacity_constraints": [
            28,
            90
          ]
        },
        {
          "name": "г. Москва  ул Проходчиков  д.17",
          "activity": "delivery",
          "point_id": 637,
          "location": {
            "lat": 55.87849,
            "lon": 37.72418
          },
          "time": {
            "arrival": "2020-10-01T19:07:07Z",
            "departure": "2020-10-01T19:14:07Z"
          },
          "capacity_constraints": [
            341,
            1130
          ]
        },
        {
          "name": "г. Москва  ул Палехская  д.17",
          "activity": "delivery",
          "point_id": 1669,
          "location": {
            "lat": 55.87134,
            "lon": 37.703
          },
          "time": {
            "arrival": "2020-10-01T19:26:06Z",
            "departure": "2020-10-01T19:33:06Z"
          },
          "capacity_constraints": [
            212,
            1860
          ]
        },
        {
          "name": "129337, Москва г, Палехская ул, дом № 17, квартира 222",
          "activity": "delivery",
          "point_id": 1773,
          "location": {
            "lat": 55.87134,
            "lon": 37.703
          },
          "time": {
            "arrival": "2020-10-01T19:33:06Z",
            "departure": "2020-10-01T19:40:06Z"
          },
          "capacity_constraints": [
            214,
            1830
          ]
        },
        {
          "name": "129337, Москва г, Палехская ул, дом № 17, квартира 222, этаж 2, Подъезд 7, Код В222в0320",
          "activity": "delivery",
          "point_id": 1765,
          "location": {
            "lat": 55.870344,
            "lon": 37.702724
          },
          "time": {
            "arrival": "2020-10-01T19:45:28Z",
            "departure": "2020-10-01T19:52:28Z"
          },
          "capacity_constraints": [
            108,
            900
          ]
        },
        {
          "name": "г. Москва  ул Докукина  д.3",
          "activity": "delivery",
          "point_id": 327,
          "location": {
            "lat": 55.83739,
            "lon": 37.65513
          },
          "time": {
            "arrival": "2020-10-01T20:04:26Z",
            "departure": "2020-10-01T20:11:26Z"
          },
          "capacity_constraints": [
            211,
            1564
          ]
        },
        {
          "name": "г. Москва  Ракетный б-р  д.9",
          "activity": "delivery",
          "point_id": 1279,
          "location": {
            "lat": 55.81798,
            "lon": 37.65051
          },
          "time": {
            "arrival": "2020-10-01T20:20:49Z",
            "departure": "2020-10-01T20:27:49Z"
          },
          "capacity_constraints": [
            241,
            1229
          ]
        },
        {
          "name": "г. Москва, ул Ярославская, д.3",
          "activity": "delivery",
          "point_id": 1037,
          "location": {
            "lat": 55.81445,
            "lon": 37.64561
          },
          "time": {
            "arrival": "2020-10-01T20:34:19Z",
            "departure": "2020-10-01T20:41:19Z"
          },
          "capacity_constraints": [
            370,
            1006
          ]
        },
        {
          "name": "Маломосковская 22/1",
          "activity": "depot end",
          "point_id": 5,
          "location": {
            "lat": 55.81174,
            "lon": 37.652616
          },
          "time": {
            "arrival": "2020-10-01T20:47:38Z",
            "departure": "2020-10-01T20:47:38Z"
          },
          "capacity_constraints": []
        }
      ],
      "deliveries": 16,
      "distance": 76574,
      "duration": 36839
    },
    {
      "id": 10,
      "profile": "bicycle",
      "name": "Зверев Сергей Николаевич",
      "stops": [
        {
          "name": "Маломосковская 22/1",
          "activity": "depot start",
          "point_id": 5,
          "location": {
            "lat": 55.81174,
            "lon": 37.652616
          },
          "time": {
            "arrival": "2020-10-01T09:50:00Z",
            "departure": "2020-10-01T10:00:00Z"
          },
          "capacity_constraints": []
        },
        {
          "name": "г. Москва, ул Маломосковская, д.21, корп.1, подъезд 3, код домофона 13, кв.13, эт.3",
          "activity": "delivery",
          "point_id": 279,
          "location": {
            "lat": 55.8135,
            "lon": 37.65004
          },
          "time": {
            "arrival": "2020-10-01T10:04:22Z",
            "departure": "2020-10-01T10:11:22Z"
          },
          "capacity_constraints": [
            3854,
            2560
          ]
        },
        {
          "name": "г. Москва  ул Павла Корчагина  д.13",
          "activity": "delivery",
          "point_id": 928,
          "location": {
            "lat": 55.81855,
            "lon": 37.66127
          },
          "time": {
            "arrival": "2020-10-01T10:19:31Z",
            "departure": "2020-10-01T10:26:31Z"
          },
          "capacity_constraints": [
            692,
            4391
          ]
        },
        {
          "name": "г. Москва, ул Касаткина, д.7, корп.16",
          "activity": "delivery",
          "point_id": 1616,
          "location": {
            "lat": 55.82631,
            "lon": 37.65555
          },
          "time": {
            "arrival": "2020-10-01T10:37:44Z",
            "departure": "2020-10-01T10:44:44Z"
          },
          "capacity_constraints": [
            820,
            1942
          ]
        },
        {
          "name": "г. Москва, проезд Сельскохозяйственный 1-й, д.3, подъезд 1, код домофона 4в, кв.4, эт.1",
          "activity": "delivery",
          "point_id": 1488,
          "location": {
            "lat": 55.83088,
            "lon": 37.64661
          },
          "time": {
            "arrival": "2020-10-01T10:55:05Z",
            "departure": "2020-10-01T11:02:05Z"
          },
          "capacity_constraints": [
            36,
            258
          ]
        },
        {
          "name": "129128  Москва г  Малахитовая ул  дом № 6  корпус 2",
          "activity": "delivery",
          "point_id": 1770,
          "location": {
            "lat": 55.83109,
            "lon": 37.66201
          },
          "time": {
            "arrival": "2020-10-01T11:15:02Z",
            "departure": "2020-10-01T11:22:02Z"
          },
          "capacity_constraints": [
            222,
            850
          ]
        },
        {
          "name": "г. Москва  ул Малахитовая  д.10",
          "activity": "delivery",
          "point_id": 406,
          "location": {
            "lat": 55.83026,
            "lon": 37.66455
          },
          "time": {
            "arrival": "2020-10-01T11:26:48Z",
            "departure": "2020-10-01T11:33:48Z"
          },
          "capacity_constraints": [
            3512,
            10040
          ]
        },
        {
          "name": "г. Москва  ул Будайская  д.5",
          "activity": "delivery",
          "point_id": 1672,
          "location": {
            "lat": 55.83379,
            "lon": 37.66662
          },
          "time": {
            "arrival": "2020-10-01T11:38:17Z",
            "departure": "2020-10-01T11:45:17Z"
          },
          "capacity_constraints": [
            478,
            2540
          ]
        },
        {
          "name": "г. Москва  ул Лосевская  д.1",
          "activity": "delivery",
          "point_id": 773,
          "location": {
            "lat": 55.87246,
            "lon": 37.70958
          },
          "time": {
            "arrival": "2020-10-01T12:12:36Z",
            "departure": "2020-10-01T12:19:36Z"
          },
          "capacity_constraints": [
            70,
            720
          ]
        },
        {
          "name": "г. Москва  ул Лосевская  д.6",
          "activity": "delivery",
          "point_id": 1299,
          "location": {
            "lat": 55.87361,
            "lon": 37.71192
          },
          "time": {
            "arrival": "2020-10-01T12:22:43Z",
            "departure": "2020-10-01T12:29:43Z"
          },
          "capacity_constraints": [
            5,
            50
          ]
        },
        {
          "name": "г. Москва, ул Палехская, д.21",
          "activity": "delivery",
          "point_id": 921,
          "location": {
            "lat": 55.87334,
            "lon": 37.70478
          },
          "time": {
            "arrival": "2020-10-01T12:35:00Z",
            "departure": "2020-10-01T12:42:00Z"
          },
          "capacity_constraints": [
            47,
            279
          ]
        },
        {
          "name": "г. Москва, ул Федоскинская, д.6, подъезд 1, кв.24, эт.6",
          "activity": "delivery",
          "point_id": 1185,
          "location": {
            "lat": 55.8698,
            "lon": 37.70412
          },
          "time": {
            "arrival": "2020-10-01T12:47:55Z",
            "departure": "2020-10-01T12:54:55Z"
          },
          "capacity_constraints": [
            158,
            1800
          ]
        },
        {
          "name": "г. Москва  ул Палехская  д.15",
          "activity": "delivery",
          "point_id": 1458,
          "location": {
            "lat": 55.87019,
            "lon": 37.70129
          },
          "time": {
            "arrival": "2020-10-01T12:59:03Z",
            "departure": "2020-10-01T13:06:03Z"
          },
          "capacity_constraints": [
            476,
            1330
          ]
        },
        {
          "name": "г. Москва  ул Федоскинская  д.7",
          "activity": "delivery",
          "point_id": 970,
          "location": {
            "lat": 55.86865,
            "lon": 37.70094
          },
          "time": {
            "arrival": "2020-10-01T13:10:35Z",
            "departure": "2020-10-01T15:07:00Z"
          },
          "capacity_constraints": [
            292,
            1398
          ]
        },
        {
          "name": "г. Москва, Яузская аллея, д.2, корп.1А",
          "activity": "delivery",
          "point_id": 793,
          "location": {
            "lat": 55.82924,
            "lon": 37.6816
          },
          "time": {
            "arrival": "2020-10-01T15:34:07Z",
            "departure": "2020-10-01T15:41:07Z"
          },
          "capacity_constraints": [
            269,
            1369
          ]
        },
        {
          "name": "г. Москва  проезд Кадомцева  д.5",
          "activity": "delivery",
          "point_id": 1239,
          "location": {
            "lat": 55.82572,
            "lon": 37.66817
          },
          "time": {
            "arrival": "2020-10-01T15:52:56Z",
            "departure": "2020-10-01T15:59:56Z"
          },
          "capacity_constraints": [
            1595,
            3962
          ]
        },
        {
          "name": "г. Москва  ул Малахитовая  д.13",
          "activity": "delivery",
          "point_id": 344,
          "location": {
            "lat": 55.83133,
            "lon": 37.66225
          },
          "time": {
            "arrival": "2020-10-01T16:07:22Z",
            "departure": "2020-10-01T16:14:22Z"
          },
          "capacity_constraints": [
            845,
            1492
          ]
        },
        {
          "name": "г. Москва  пр-кт Мира  д.131",
          "activity": "delivery",
          "point_id": 994,
          "location": {
            "lat": 55.83212,
            "lon": 37.65052
          },
          "time": {
            "arrival": "2020-10-01T16:24:45Z",
            "departure": "2020-10-01T16:31:45Z"
          },
          "capacity_constraints": [
            214,
            1094
          ]
        },
        {
          "name": "г. Москва  ул Бориса Галушкина  д.18",
          "activity": "delivery",
          "point_id": 935,
          "location": {
            "lat": 55.82229,
            "lon": 37.65617
          },
          "time": {
            "arrival": "2020-10-01T16:41:17Z",
            "departure": "2020-10-01T16:48:17Z"
          },
          "capacity_constraints": [
            500,
            1477
          ]
        },
        {
          "name": "г. Москва  ул Константинова  д.4",
          "activity": "delivery",
          "point_id": 722,
          "location": {
            "lat": 55.81414,
            "lon": 37.65333
          },
          "time": {
            "arrival": "2020-10-01T16:57:27Z",
            "departure": "2020-10-01T17:04:27Z"
          },
          "capacity_constraints": [
            567,
            1656
          ]
        },
        {
          "name": "Маломосковская 22/1",
          "activity": "reload",
          "point_id": 5,
          "location": {
            "lat": 55.81174,
            "lon": 37.652616
          },
          "time": {
            "arrival": "2020-10-01T17:09:15Z",
            "departure": "2020-10-01T17:19:15Z"
          },
          "capacity_constraints": []
        },
        {
          "name": "г. Москва, ул Маломосковская, д.18, корп.1, кв.108, эт.1",
          "activity": "delivery",
          "point_id": 1868,
          "location": {
            "lat": 55.81174,
            "lon": 37.65258
          },
          "time": {
            "arrival": "2020-10-01T17:19:15Z",
            "departure": "2020-10-01T17:26:15Z"
          },
          "capacity_constraints": [
            734,
            1301
          ]
        },
        {
          "name": "г. Москва, Ботанический пер, д.16, кв.58, эт.19",
          "activity": "delivery",
          "point_id": 1218,
          "location": {
            "lat": 55.77907,
            "lon": 37.63905
          },
          "time": {
            "arrival": "2020-10-01T17:50:00Z",
            "departure": "2020-10-01T17:57:00Z"
          },
          "capacity_constraints": [
            1000,
            2400
          ]
        },
        {
          "name": "г. Москва, пер Головин Б., д.21",
          "activity": "delivery",
          "point_id": 904,
          "location": {
            "lat": 55.769535,
            "lon": 37.629556
          },
          "time": {
            "arrival": "2020-10-01T18:08:25Z",
            "departure": "2020-10-01T18:15:25Z"
          },
          "capacity_constraints": [
            80,
            420
          ]
        },
        {
          "name": "г. Москва, ул Гиляровского, д.15, подъезд 1, кв.30, эт.6",
          "activity": "delivery",
          "point_id": 1582,
          "location": {
            "lat": 55.77603,
            "lon": 37.63
          },